City_ID,City,Country,Date,Lat,Lng,Max Temp,Humidity,Cloudiness,Wind Speed,Weather Description,Rain inches (last 3 hrs),Snow inches (last 3 hrs)
0,Cape Town,ZA,2020-04-18 18:49:04,-33.93,18.42,68.0,52,5,3.36,clear sky,0.0,0.0
1,Port Alfred,ZA,2020-04-18 18:53:17,-33.59,26.89,66.0,95,0,4.0,clear sky,0.0,0.0
2,Albany,US,2020-04-18 18:53:18,42.6,-73.97,43.0,69,98,1.01,light rain,0.6,0.0
3,Hilo,US,2020-04-18 18:53:18,19.73,-155.09,75.2,64,1,5.66,clear sky,0.0,0.0
4,Vaini,TO,2020-04-18 18:53:18,-21.2,-175.2,77.0,83,20,8.05,few clouds,0.0,0.0
5,Ushuaia,AR,2020-04-18 18:53:18,-54.8,-68.3,51.8,37,75,12.75,broken clouds,0.0,0.0
6,Nikolskoye,RU,2020-04-18 18:53:19,59.7,30.79,37.4,94,75,13.42,broken clouds,0.0,0.0
7,Zabol,AF,2020-04-18 18:53:19,32.25,67.25,53.91,25,0,9.8,clear sky,0.0,0.0
8,Acobamba,PE,2020-04-18 18:53:19,-11.35,-75.66,55.9,25,94,7.58,light rain,0.5,0.0
9,Tuktoyaktuk,CA,2020-04-18 18:53:19,69.45,-133.04,6.8,77,40,6.93,scattered clouds,0.0,0.0
10,Kahului,US,2020-04-18 18:49:54,20.89,-156.47,75.2,60,20,3.36,few clouds,0.0,0.0
11,Garowe,SO,2020-04-18 18:53:20,8.41,48.48,81.55,56,49,16.53,scattered clouds,0.0,0.0
12,Kapaa,US,2020-04-18 18:53:20,22.08,-159.32,77.0,73,20,12.75,few clouds,0.0,0.0
13,Arraial Do Cabo,BR,2020-04-18 18:49:19,-22.97,-42.03,77.0,73,40,10.29,scattered clouds,0.0,0.0
14,Svetlogorsk,BY,2020-04-18 18:53:21,52.63,29.73,39.07,69,70,6.24,broken clouds,0.0,0.0
15,Soyo,AO,2020-04-18 18:53:21,-6.13,12.37,79.2,81,96,6.13,overcast clouds,0.0,0.0
16,Sao Filipe,CV,2020-04-18 18:53:21,14.9,-24.5,71.49,73,14,23.38,few clouds,0.0,0.0
17,Dikson,RU,2020-04-18 18:53:21,73.51,80.55,35.91,91,100,18.05,overcast clouds,0.0,0.0
18,Zyryanka,RU,2020-04-18 18:53:22,65.75,150.85,-0.72,92,100,19.33,light snow,0.0,0.58
19,Bambous Virieux,MU,2020-04-18 18:53:22,-20.34,57.76,79.0,74,40,16.11,shower rain,0.0,0.0
20,Shiogama,JP,2020-04-18 18:53:22,38.32,141.03,50.74,88,92,17.94,light rain,2.69,0.0
21,Aitape,PG,2020-04-18 18:53:22,-3.14,142.35,78.6,82,72,4.79,broken clouds,0.0,0.0
22,Benghazi,LY,2020-04-18 18:53:23,32.12,20.07,62.74,65,0,15.97,clear sky,0.0,0.0
23,Atuona,PF,2020-04-18 18:48:49,-9.8,-139.03,82.26,79,63,14.2,light rain,0.34,0.0
24,Mataura,NZ,2020-04-18 18:49:00,-46.19,168.86,42.01,93,100,5.01,overcast clouds,0.0,0.0
25,Quatre Cocos,MU,2020-04-18 18:53:23,-20.21,57.76,79.0,74,40,16.11,shower rain,0.0,0.0
26,Barrow,US,2020-04-18 18:53:23,71.29,-156.79,-7.6,91,1,9.17,clear sky,0.0,0.0
27,Aktash,RU,2020-04-18 18:53:24,50.3,87.73,26.11,43,0,3.09,clear sky,0.0,0.0
28,Ribeira Grande,PT,2020-04-18 18:53:24,38.52,-28.7,64.4,88,75,10.29,broken clouds,0.0,0.0
29,Vardo,NO,2020-04-18 18:53:24,70.37,31.11,33.8,86,75,11.41,broken clouds,0.0,0.0
30,Asau,RO,2020-04-18 18:53:24,46.43,26.4,50.0,53,52,8.05,broken clouds,0.0,0.0
31,Poitiers,FR,2020-04-18 18:53:24,46.58,0.33,66.2,59,68,3.36,light rain,0.52,0.0
32,Puerto Carreno,CO,2020-04-18 18:53:25,6.19,-67.49,77.0,88,75,9.17,thunderstorm with light rain,0.0,0.0
33,Chernaya Kholunitsa,RU,2020-04-18 18:53:25,58.85,51.72,31.5,91,84,5.1,broken clouds,0.0,0.0
34,Kalmunai,LK,2020-04-18 18:50:01,7.42,81.82,82.35,79,30,5.41,light rain,0.53,0.0
35,Chenzhou,CN,2020-04-18 18:53:25,25.8,113.03,67.78,86,100,1.97,light rain,1.82,0.0
36,Flinders,AU,2020-04-18 18:53:26,-34.58,150.86,53.01,83,92,1.01,light rain,0.2,0.0
37,Arlit,NE,2020-04-18 18:53:26,18.74,7.39,93.45,8,0,5.55,clear sky,0.0,0.0
38,Imeni Zhelyabova,RU,2020-04-18 18:53:26,58.95,36.6,34.38,84,98,3.78,overcast clouds,0.0,0.0
39,Broome,US,2020-04-18 18:53:26,42.25,-75.83,42.01,69,90,12.75,moderate rain,0.0,0.0
40,Batagay,RU,2020-04-18 18:53:26,67.63,134.63,-8.77,87,82,2.1,broken clouds,0.0,0.0
41,Bredasdorp,ZA,2020-04-18 18:53:27,-34.53,20.04,57.2,87,0,4.7,clear sky,0.0,0.0
42,Harper,LR,2020-04-18 18:53:27,4.38,-7.72,82.0,82,92,9.82,moderate rain,3.46,0.0
43,Yei,SS,2020-04-18 18:53:27,4.09,30.68,69.82,69,94,3.44,overcast clouds,0.0,0.0
44,La Roda,ES,2020-04-18 18:53:27,39.22,-2.15,59.0,82,75,10.29,thunderstorm,0.0,0.0
45,Tuma,RU,2020-04-18 18:53:28,55.15,40.55,36.0,70,77,1.99,light rain,0.2,0.0
46,Mar Del Plata,AR,2020-04-18 18:52:40,-38.0,-57.56,75.2,50,0,18.34,clear sky,0.0,0.0
47,Sept-Iles,CA,2020-04-18 18:53:28,50.2,-66.38,33.8,64,20,10.29,few clouds,0.0,0.0
48,Busselton,AU,2020-04-18 18:48:55,-33.65,115.33,62.01,67,100,22.86,light rain,1.0,0.0
49,Krasnoarmeysk,RU,2020-04-18 18:53:28,51.02,45.7,41.27,63,46,8.66,scattered clouds,0.0,0.0
50,Rikitea,PF,2020-04-18 18:52:34,-23.12,-134.97,76.78,70,1,4.68,clear sky,0.0,0.0
51,Seymchan,RU,2020-04-18 18:53:29,62.88,152.43,-1.91,86,100,7.38,light snow,0.0,0.15
52,Outjo,NA,2020-04-18 18:53:29,-20.12,16.15,68.0,56,39,2.24,scattered clouds,0.0,0.0
53,Thompson,CA,2020-04-18 18:53:29,55.74,-97.86,12.2,56,75,13.87,broken clouds,0.0,0.0
54,Padang,ID,2020-04-18 18:49:44,-0.95,100.35,78.89,77,100,0.98,moderate rain,3.64,0.0
55,Kendari,ID,2020-04-18 18:53:30,-3.94,122.5,76.59,88,93,1.68,overcast clouds,0.0,0.0
56,Isabela,PH,2020-04-18 18:53:30,6.71,121.97,78.8,83,20,1.12,few clouds,0.0,0.0
57,Bluff,NZ,2020-04-18 18:49:04,-46.6,168.33,42.01,93,100,5.01,overcast clouds,0.0,0.0
58,Ketchikan,US,2020-04-18 18:53:31,55.34,-131.65,50.0,76,1,13.87,clear sky,0.0,0.0
59,Ponta Delgada,PT,2020-04-18 18:51:13,37.73,-25.67,62.6,88,40,13.87,scattered clouds,0.0,0.0
60,Kuroiso,JP,2020-04-18 18:53:31,36.97,140.05,51.01,88,100,8.99,light rain,0.56,0.0
61,Itarema,BR,2020-04-18 18:53:31,-2.92,-39.92,84.38,72,30,7.09,light rain,1.22,0.0
62,Yuanping,CN,2020-04-18 18:53:31,38.72,112.76,48.09,55,100,1.36,light rain,0.98,0.0
63,San Quintin,MX,2020-04-18 18:53:32,30.48,-115.95,62.74,57,23,16.8,few clouds,0.0,0.0
64,Bam,IR,2020-04-18 18:53:32,29.11,58.36,73.58,26,43,3.67,scattered clouds,0.0,0.0
65,Longido,TZ,2020-04-18 18:53:32,-2.73,36.68,64.69,59,100,5.82,light rain,0.38,0.0
66,Dengzhou,CN,2020-04-18 18:53:32,37.81,120.75,52.83,67,100,8.41,overcast clouds,0.0,0.0
67,Wolow,PL,2020-04-18 18:53:32,51.34,16.64,48.99,43,0,1.01,clear sky,0.0,0.0
68,Gladstone,AU,2020-04-18 18:53:33,-23.85,151.25,77.0,83,40,3.36,scattered clouds,0.0,0.0
69,Constantine,DZ,2020-04-18 18:53:33,36.37,6.61,69.8,68,40,5.82,scattered clouds,0.0,0.0
70,Victoria,HK,2020-04-18 18:48:46,22.29,114.16,75.0,88,96,5.01,overcast clouds,0.0,0.0
71,Nanortalik,GL,2020-04-18 18:53:33,60.14,-45.24,30.18,88,27,3.69,scattered clouds,0.0,0.0
72,Srednekolymsk,RU,2020-04-18 18:53:33,67.45,153.68,-12.33,89,47,7.87,scattered clouds,0.0,0.0
73,Fort Nelson,CA,2020-04-18 18:49:29,58.81,-122.7,48.2,45,40,8.05,scattered clouds,0.0,0.0
74,Boa Vista,BR,2020-04-18 18:51:08,2.82,-60.67,93.2,38,75,6.93,broken clouds,0.0,0.0
75,Upernavik,GL,2020-04-18 18:53:34,72.79,-56.15,25.68,89,100,29.04,light snow,0.0,0.29
76,Lata,PT,2020-04-18 18:49:44,40.16,-8.33,63.0,69,68,4.0,light rain,0.27,0.0
77,Puerto Escondido,MX,2020-04-18 18:49:44,15.85,-97.07,86.0,84,5,10.29,clear sky,0.0,0.0
78,Bubaque,GW,2020-04-18 18:53:35,11.28,-15.83,77.23,75,100,21.7,overcast clouds,0.0,0.0
79,Cherskiy,RU,2020-04-18 18:53:35,68.75,161.3,-4.95,87,39,6.04,scattered clouds,0.0,0.0
80,Madimba,TZ,2020-04-18 18:53:36,-10.4,40.33,77.0,94,75,9.17,broken clouds,0.0,0.0
81,Adrar,MR,2020-04-18 18:53:36,20.5,-10.07,82.8,25,96,8.77,overcast clouds,0.0,0.0
82,Waingapu,ID,2020-04-18 18:53:36,-9.66,120.26,79.18,80,83,3.6,broken clouds,0.0,0.0
83,Hithadhoo,MV,2020-04-18 18:50:44,-0.6,73.08,84.16,74,99,12.82,overcast clouds,0.0,0.0
84,Alanya,TR,2020-04-18 18:53:37,36.54,32.0,65.46,63,82,4.79,broken clouds,0.0,0.0
85,Klaksvik,FO,2020-04-18 18:53:37,62.23,-6.59,44.6,75,0,14.99,clear sky,0.0,0.0
86,Zhanakorgan,KZ,2020-04-18 18:53:37,43.91,67.25,66.99,23,0,10.02,clear sky,0.0,0.0
87,Qaanaaq,GL,2020-04-18 18:53:37,77.48,-69.36,19.42,82,26,11.03,scattered clouds,0.0,0.0
88,Te Anau,NZ,2020-04-18 18:50:09,-45.42,167.72,44.96,72,80,5.73,light rain,0.93,0.0
89,Avarua,CK,2020-04-18 18:52:15,-21.21,-159.78,78.8,78,13,5.82,few clouds,0.0,0.0
90,Carnarvon,AU,2020-04-18 18:50:04,-24.87,113.63,75.2,88,75,14.99,broken clouds,0.0,0.0
91,Christchurch,NZ,2020-04-18 18:53:30,-43.53,172.63,48.99,70,16,3.36,few clouds,0.0,0.0
92,Lebu,CL,2020-04-18 18:53:39,-37.62,-73.65,64.29,68,91,6.55,overcast clouds,0.0,0.0
93,Langham,CA,2020-04-18 18:53:39,52.37,-106.97,35.6,59,75,17.22,light snow,0.0,0.0
94,Uyovu,TZ,2020-04-18 18:53:39,-3.28,31.53,66.83,65,100,2.39,moderate rain,3.88,0.0
95,Ponta Do Sol,PT,2020-04-18 18:53:39,32.67,-17.1,63.0,58,6,1.99,clear sky,0.0,0.0
96,Kodiak,US,2020-04-18 18:53:40,57.79,-152.41,44.6,81,40,4.7,scattered clouds,0.0,0.0
97,Itupiranga,BR,2020-04-18 18:53:40,-5.13,-49.33,86.0,70,75,3.36,broken clouds,0.0,0.0
98,Saldanha,ZA,2020-04-18 18:53:40,-33.01,17.94,71.6,30,21,6.93,few clouds,0.0,0.0
99,Juruti,BR,2020-04-18 18:53:40,-2.15,-56.09,87.04,61,95,2.77,overcast clouds,0.0,0.0
100,Yakeshi,CN,2020-04-18 18:53:41,49.28,120.73,47.46,55,100,12.71,light rain,0.29,0.0
101,Sinegorye,RU,2020-04-18 18:53:41,62.08,150.48,-5.87,81,100,6.51,light snow,0.0,0.28
102,Chicama,PE,2020-04-18 18:53:41,-7.84,-79.15,71.6,78,75,11.41,broken clouds,0.0,0.0
103,Benito Juarez,MX,2020-04-18 18:53:42,19.39,-99.17,77.0,33,5,4.7,clear sky,0.0,0.0
104,Russell,US,2020-04-18 18:53:42,32.35,-85.2,78.8,54,40,11.41,scattered clouds,0.0,0.0
105,Biograd Na Moru,HR,2020-04-18 18:53:43,43.94,15.45,60.01,67,92,2.24,overcast clouds,0.0,0.0
106,Saint George,US,2020-04-18 18:49:45,37.1,-113.58,69.01,39,1,5.82,clear sky,0.0,0.0
107,Serowe,BW,2020-04-18 18:53:43,-22.38,26.72,70.83,33,1,7.81,clear sky,0.0,0.0
108,Punta Arenas,CL,2020-04-18 18:53:43,-53.15,-70.92,55.4,43,57,17.22,broken clouds,0.0,0.0
109,Dingle,PH,2020-04-18 18:53:44,11.0,122.67,80.22,79,0,8.52,clear sky,0.0,0.0
110,Faanui,PF,2020-04-18 18:53:44,-16.48,-151.75,82.76,70,60,8.72,broken clouds,0.0,0.0
111,Bethel,US,2020-04-18 18:53:44,41.37,-73.41,41.0,80,90,9.17,overcast clouds,0.0,0.0
112,Sisimiut,GL,2020-04-18 18:49:16,66.94,-53.67,25.56,91,100,22.46,light snow,0.0,0.71
113,Chokurdakh,RU,2020-04-18 18:53:45,70.63,147.92,-12.08,86,56,7.52,broken clouds,0.0,0.0
114,Dzaoudzi,YT,2020-04-18 18:53:45,-12.79,45.27,82.4,69,69,6.93,light rain,0.15,0.0
115,Victor Harbor,AU,2020-04-18 18:53:45,-35.57,138.62,50.0,99,81,1.57,broken clouds,0.0,0.0
116,Beyneu,KZ,2020-04-18 18:50:22,45.32,55.2,65.48,36,78,6.11,broken clouds,0.0,0.0
117,Shahrud,IR,2020-04-18 18:53:46,36.42,54.98,59.86,32,97,3.42,light rain,0.34,0.0
118,Gayeri,BF,2020-04-18 18:53:46,12.65,0.49,98.08,15,55,3.33,broken clouds,0.0,0.0
119,Leningradskiy,RU,2020-04-18 18:53:46,69.38,178.42,-3.64,89,51,7.58,broken clouds,0.0,0.0
120,Provideniya,RU,2020-04-18 18:52:47,64.38,-173.3,21.16,95,100,16.24,light snow,0.0,1.17
121,Adela,PH,2020-04-18 18:53:46,12.44,120.97,79.72,74,9,5.91,clear sky,0.0,0.0
122,Muros,ES,2020-04-18 18:53:47,42.78,-9.06,63.0,77,64,1.99,light rain,0.27,0.0
123,Haines Junction,CA,2020-04-18 18:53:47,60.75,-137.51,42.53,50,1,1.5,clear sky,0.0,0.0
124,Celestun,MX,2020-04-18 18:49:36,20.87,-90.4,87.78,53,36,7.61,scattered clouds,0.0,0.0
125,Woodstock,CA,2020-04-18 18:53:34,43.13,-80.75,46.99,69,36,5.99,light rain,0.11,0.0
126,Mitu,CO,2020-04-18 18:53:48,1.2,-70.17,73.31,87,99,4.45,light rain,1.04,0.0
127,Vila,PT,2020-04-18 18:50:09,42.03,-8.16,57.2,82,40,4.7,scattered clouds,0.0,0.0
128,Pokrovskoye,RU,2020-04-18 18:53:48,47.42,38.9,48.99,57,74,1.99,broken clouds,0.0,0.0
129,Bardiyah,LY,2020-04-18 18:53:48,31.76,25.09,60.91,73,0,8.48,clear sky,0.0,0.0
130,Oistins,BB,2020-04-18 18:53:49,13.07,-59.53,86.0,58,20,19.46,few clouds,0.0,0.0
131,Nyrsko,CZ,2020-04-18 18:53:49,49.29,13.14,56.48,69,100,0.54,light rain,1.3,0.0
132,Ananas,HT,2020-04-18 18:53:49,19.25,-71.96,84.2,66,20,16.11,few clouds,0.0,0.0
133,Hermanus,ZA,2020-04-18 18:53:50,-34.42,19.23,72.0,36,6,2.06,clear sky,0.0,0.0
134,Tuatapere,NZ,2020-04-18 18:50:03,-46.13,167.68,42.01,93,94,5.01,overcast clouds,0.0,0.0
135,Mokhsogollokh,RU,2020-04-18 18:53:50,61.47,128.92,4.8,92,50,3.51,scattered clouds,0.0,0.0
136,Hamilton,US,2020-04-18 18:50:05,39.18,-84.53,54.0,46,75,8.05,broken clouds,0.0,0.0
137,Abu Dhabi,AE,2020-04-18 18:50:09,24.47,54.37,77.0,69,15,6.93,few clouds,0.0,0.0
138,Annau,TM,2020-04-18 18:53:51,37.89,58.52,62.6,72,40,2.24,scattered clouds,0.0,0.0
139,Severo-Kurilsk,RU,2020-04-18 18:53:51,50.68,156.12,32.68,88,0,9.04,clear sky,0.0,0.0
140,Goma,CD,2020-04-18 18:53:51,-1.68,29.22,65.48,53,100,1.25,moderate rain,6.0,0.0
141,Jamestown,US,2020-04-18 18:50:44,42.1,-79.24,43.0,55,75,12.75,broken clouds,0.0,0.0
142,Rujewa,TZ,2020-04-18 18:53:52,-8.7,34.38,68.54,56,100,6.96,overcast clouds,0.0,0.0
143,Cerrito,CO,2020-04-18 18:53:52,6.84,-72.69,75.2,78,75,6.93,haze,0.0,0.0
144,Lavrentiya,RU,2020-04-18 18:53:52,65.58,-171.0,17.69,96,100,13.2,snow,0.0,1.84
145,Elizabeth City,US,2020-04-18 18:53:52,36.29,-76.25,61.0,72,75,14.99,light rain,0.0,0.0
146,Qeshm,IR,2020-04-18 18:50:14,26.96,56.27,78.8,78,99,6.93,haze,0.0,0.0
147,Jatai,BR,2020-04-18 18:53:53,-17.88,-51.71,75.33,68,95,3.02,light rain,1.67,0.0
148,Nanakuli,US,2020-04-18 18:53:53,21.39,-158.15,71.01,77,40,6.62,scattered clouds,0.0,0.0
149,Yerbogachen,RU,2020-04-18 18:53:53,61.28,108.01,11.3,90,4,5.73,clear sky,0.0,0.0
150,Inhambane,MZ,2020-04-18 18:53:54,-23.86,35.38,75.11,78,9,14.5,clear sky,0.0,0.0
151,Chunoyar,RU,2020-04-18 18:53:54,57.45,97.32,27.14,93,22,5.48,few clouds,0.0,0.0
152,Cayenne,GF,2020-04-18 18:53:54,4.93,-52.33,86.0,70,75,9.17,broken clouds,0.0,0.0
153,Gualeguay,AR,2020-04-18 18:53:54,-33.14,-59.31,81.03,35,0,9.31,clear sky,0.0,0.0
154,Yellowknife,CA,2020-04-18 18:53:54,62.46,-114.35,24.01,79,75,9.17,light snow,0.0,0.0
155,Pevek,RU,2020-04-18 18:49:17,69.7,170.31,-4.92,89,0,7.09,clear sky,0.0,0.0
156,Port-Gentil,GA,2020-04-18 18:53:55,-0.72,8.78,84.2,83,40,8.05,scattered clouds,0.0,0.0
157,Port Hedland,AU,2020-04-18 18:53:55,-20.32,118.57,78.8,94,67,6.93,broken clouds,0.0,0.0
158,Abomsa,ET,2020-04-18 18:53:55,9.98,39.98,72.84,49,100,3.24,light rain,2.27,0.0
159,Amuntai,ID,2020-04-18 18:53:55,-2.42,115.25,75.2,95,99,1.3,moderate rain,5.43,0.0
160,Erenhot,CN,2020-04-18 18:53:56,43.65,111.98,49.46,46,100,13.69,overcast clouds,0.0,0.0
161,Irtyshskiy,RU,2020-04-18 18:53:56,58.33,68.13,44.29,70,92,8.08,overcast clouds,0.0,0.0
162,Burayevo,RU,2020-04-18 18:53:56,55.84,55.41,38.55,74,70,7.29,light rain,0.37,0.0
163,Georgetown,MY,2020-04-18 18:53:56,5.41,100.34,82.4,88,40,4.7,scattered clouds,0.0,0.0
164,Vila Franca Do Campo,PT,2020-04-18 18:53:57,37.72,-25.43,62.6,88,40,13.87,scattered clouds,0.0,0.0
165,Buraydah,SA,2020-04-18 18:50:36,26.33,43.98,78.8,54,50,19.46,dust,0.0,0.0
166,Souillac,MU,2020-04-18 18:53:57,-20.52,57.52,79.0,74,40,16.11,shower rain,0.0,0.0
167,Bilibino,RU,2020-04-18 18:53:57,68.05,166.44,-8.21,81,13,5.03,few clouds,0.0,0.0
168,Misratah,LY,2020-04-18 18:50:29,32.38,15.09,65.37,70,54,12.88,broken clouds,0.0,0.0
169,Pangkalanbuun,ID,2020-04-18 18:49:44,-2.68,111.62,77.23,92,83,4.25,light rain,0.19,0.0
170,Karasburg,NA,2020-04-18 18:53:58,-28.02,18.75,75.07,13,0,13.67,clear sky,0.0,0.0
171,Hobart,AU,2020-04-18 18:53:07,-42.88,147.33,44.01,87,72,5.59,broken clouds,0.0,0.0
172,Ahipara,NZ,2020-04-18 18:53:59,-35.17,173.17,63.79,84,65,10.96,broken clouds,0.0,0.0
173,Ilo,PE,2020-04-18 18:53:59,-17.64,-71.34,74.01,60,3,7.94,clear sky,0.0,0.0
174,Lompoc,US,2020-04-18 18:53:59,34.64,-120.46,60.8,63,90,6.93,overcast clouds,0.0,0.0
175,Castro,BR,2020-04-18 18:53:06,-24.79,-50.01,71.24,38,36,4.59,scattered clouds,0.0,0.0
176,Hay River,CA,2020-04-18 18:49:16,60.82,-115.8,33.8,64,75,2.24,broken clouds,0.0,0.0
177,Baykalsk,RU,2020-04-18 18:54:00,51.51,104.15,33.49,73,99,5.5,light snow,0.0,0.99
178,Kikwit,CD,2020-04-18 18:54:00,-5.04,18.82,73.6,80,100,3.62,light rain,1.22,0.0
179,Yulara,AU,2020-04-18 18:49:47,-25.24,130.99,68.0,42,0,6.93,clear sky,0.0,0.0
180,Mathbaria,BD,2020-04-18 18:54:01,22.29,89.96,76.01,72,89,9.89,overcast clouds,0.0,0.0
181,Urengoy,RU,2020-04-18 18:51:45,65.97,78.37,39.65,93,100,23.62,light rain,1.35,0.0
182,Kaitangata,NZ,2020-04-18 18:52:58,-46.28,169.85,48.0,89,100,7.87,overcast clouds,0.0,0.0
183,Lethem,GY,2020-04-18 18:54:01,3.38,-59.8,94.86,36,73,7.36,broken clouds,0.0,0.0
184,Siilinjarvi,FI,2020-04-18 18:54:02,63.08,27.67,35.6,85,87,10.29,overcast clouds,0.0,0.0
185,Hasanabad,IR,2020-04-18 18:54:02,36.55,61.05,62.6,63,100,2.24,overcast clouds,0.0,0.0
186,Penarroya-Pueblonuevo,ES,2020-04-18 18:54:02,38.3,-5.27,69.8,60,86,5.82,light rain,0.27,0.0
187,Mumford,GH,2020-04-18 18:54:02,5.26,-0.76,83.77,78,57,12.17,light rain,0.27,0.0
188,Hualmay,PE,2020-04-18 18:49:27,-11.1,-77.61,77.65,61,52,9.24,broken clouds,0.0,0.0
189,Vestmanna,FO,2020-04-18 18:54:03,62.16,-7.17,44.6,75,0,14.99,clear sky,0.0,0.0
190,Asyut,EG,2020-04-18 18:54:03,27.18,31.18,73.4,43,0,17.22,clear sky,0.0,0.0
191,Umba,RU,2020-04-18 18:49:09,66.69,34.34,32.65,95,83,11.72,broken clouds,0.0,0.0
192,Nantong,CN,2020-04-18 18:54:03,32.03,120.87,54.0,95,100,13.44,heavy intensity rain,0.0,0.0
193,Yuxia,CN,2020-04-18 18:54:04,34.06,108.63,50.0,87,75,2.24,mist,0.0,0.0
194,Tasiilaq,GL,2020-04-18 18:54:04,65.61,-37.64,32.0,91,90,17.22,overcast clouds,0.0,0.0
195,Naryan-Mar,RU,2020-04-18 18:54:04,67.67,53.09,32.95,96,100,5.1,overcast clouds,0.0,0.0
196,Rodos,GR,2020-04-18 18:54:04,36.44,28.22,62.6,77,20,6.93,few clouds,0.0,0.0
197,Mackenzie,CA,2020-04-18 18:54:04,55.3,-123.17,44.6,42,1,2.24,clear sky,0.0,0.0
198,Kousseri,CM,2020-04-18 18:54:05,12.08,15.03,96.8,5,64,6.93,broken clouds,0.0,0.0
199,Berlevag,NO,2020-04-18 18:54:05,70.86,29.09,33.8,86,75,11.41,broken clouds,0.0,0.0
200,Jizan,SA,2020-04-18 18:54:05,17.33,42.67,89.6,66,20,3.36,few clouds,0.0,0.0
201,Duldurga,RU,2020-04-18 18:54:05,50.68,113.59,32.99,63,4,10.74,clear sky,0.0,0.0
202,Saskylakh,RU,2020-04-18 18:54:05,71.92,114.08,8.49,81,0,5.06,clear sky,0.0,0.0
203,Necochea,AR,2020-04-18 18:54:06,-38.55,-58.74,81.0,44,0,18.01,clear sky,0.0,0.0
204,Broken Hill,AU,2020-04-18 18:54:06,-31.95,141.43,51.8,62,43,1.48,scattered clouds,0.0,0.0
205,Mahebourg,MU,2020-04-18 18:54:06,-20.41,57.7,79.0,74,40,16.11,shower rain,0.0,0.0
206,Yeppoon,AU,2020-04-18 18:54:06,-23.13,150.73,73.4,83,75,2.24,broken clouds,0.0,0.0
207,Krasnogorsk,RU,2020-04-18 18:54:06,55.82,37.32,35.6,75,98,13.42,overcast clouds,0.0,0.0
208,Cabedelo,BR,2020-04-18 18:54:07,-6.98,-34.83,86.0,70,40,10.29,scattered clouds,0.0,0.0
209,Kachiry,KZ,2020-04-18 18:54:07,53.07,76.1,55.58,44,83,9.13,broken clouds,0.0,0.0
210,East London,ZA,2020-04-18 18:54:07,-33.02,27.91,71.94,64,0,17.94,clear sky,0.0,0.0
211,Mogadishu,SO,2020-04-18 18:54:07,2.04,45.34,84.54,75,88,13.35,overcast clouds,0.0,0.0
212,Kosh-Agach,RU,2020-04-18 18:54:08,50.0,88.67,30.31,37,0,3.38,clear sky,0.0,0.0
213,Morovis,PR,2020-04-18 18:54:08,18.33,-66.41,84.99,82,41,13.11,light rain,0.19,0.0
214,Kurbnesh,AL,2020-04-18 18:54:08,41.78,20.08,57.2,82,41,2.24,scattered clouds,0.0,0.0
215,Acapulco,MX,2020-04-18 18:54:08,16.86,-99.89,86.0,55,5,8.05,haze,0.0,0.0
216,Chongwe,ZM,2020-04-18 18:54:08,-15.33,28.68,68.0,72,0,4.7,clear sky,0.0,0.0
217,Chuy,UY,2020-04-18 18:54:09,-33.7,-53.46,70.14,70,32,6.78,scattered clouds,0.0,0.0
218,Vostok,RU,2020-04-18 18:49:48,46.49,135.88,34.97,75,27,3.09,scattered clouds,0.0,0.0
219,Vanimo,PG,2020-04-18 18:54:09,-2.67,141.3,81.12,76,88,2.77,light rain,0.16,0.0
220,Miramar,US,2020-04-18 18:54:09,25.99,-80.23,93.2,46,40,8.05,scattered clouds,0.0,0.0
221,Mareeba,AU,2020-04-18 18:53:01,-17.0,145.43,75.2,100,90,1.25,overcast clouds,0.0,0.0
222,New Norfolk,AU,2020-04-18 18:54:10,-42.78,147.06,43.0,85,70,3.62,broken clouds,0.0,0.0
223,Saint-Georges,GD,2020-04-18 18:54:10,12.06,-61.75,86.0,66,20,19.46,few clouds,0.0,0.0
224,Marmarion,GR,2020-04-18 18:52:25,38.05,24.32,59.0,67,1,2.24,clear sky,0.0,0.0
225,Guerrero Negro,MX,2020-04-18 18:54:08,27.98,-114.06,65.25,56,2,16.64,clear sky,0.0,0.0
226,Luderitz,NA,2020-04-18 18:54:10,-26.65,15.16,60.8,87,11,6.93,few clouds,0.0,0.0
227,Rocha,UY,2020-04-18 18:54:11,-34.48,-54.33,72.12,59,0,7.54,clear sky,0.0,0.0
228,Anadyr,RU,2020-04-18 18:54:11,64.75,177.48,15.8,85,90,17.9,light snow,0.0,0.0
229,Coquimbo,CL,2020-04-18 18:54:11,-29.95,-71.34,60.8,82,90,9.17,overcast clouds,0.0,0.0
230,Longyearbyen,SJ,2020-04-18 18:54:11,78.22,15.64,32.0,95,40,6.93,scattered clouds,0.0,0.0
231,Touros,BR,2020-04-18 18:49:13,-5.2,-35.46,87.8,62,40,11.41,scattered clouds,0.0,0.0
232,Turkmenabat,TM,2020-04-18 18:54:12,39.07,63.58,66.2,42,63,2.24,broken clouds,0.0,0.0
233,Eureka,US,2020-04-18 18:51:52,40.8,-124.16,54.0,77,99,7.0,overcast clouds,0.0,0.0
234,Sechura,PE,2020-04-18 18:54:12,-5.56,-80.82,77.56,65,32,8.77,scattered clouds,0.0,0.0
235,Swellendam,ZA,2020-04-18 18:54:13,-34.02,20.44,57.2,87,0,4.7,clear sky,0.0,0.0
236,Coyah,GN,2020-04-18 18:54:13,9.75,-13.42,84.31,58,31,10.45,scattered clouds,0.0,0.0
237,Praya,CV,2020-04-18 18:50:49,14.92,-23.51,78.8,54,40,20.8,scattered clouds,0.0,0.0
238,Homer,US,2020-04-18 18:54:13,59.64,-151.55,50.0,81,1,9.17,clear sky,0.0,0.0
239,Kavieng,PG,2020-04-18 18:49:46,-2.57,150.8,82.17,76,99,0.6,overcast clouds,0.0,0.0
240,Hambantota,LK,2020-04-18 18:54:13,6.12,81.12,78.8,100,20,1.12,few clouds,0.0,0.0
241,Taoudenni,ML,2020-04-18 18:53:31,22.68,-3.98,92.43,27,53,29.01,broken clouds,0.0,0.0
242,Salinas,US,2020-04-18 18:50:52,36.68,-121.66,60.8,62,90,5.82,overcast clouds,0.0,0.0
243,Ostrovnoy,RU,2020-04-18 18:54:14,68.05,39.51,32.45,95,100,12.5,light snow,0.0,0.3
244,Doba,TD,2020-04-18 18:54:14,8.65,16.85,96.19,21,80,4.16,broken clouds,0.0,0.0
245,Okha,RU,2020-04-18 18:54:15,53.57,142.95,17.4,90,18,6.82,few clouds,0.0,0.0
246,Nerchinskiy Zavod,RU,2020-04-18 18:54:15,51.31,119.61,26.38,81,99,14.67,overcast clouds,0.0,0.0
247,Aquiraz,BR,2020-04-18 18:54:15,-3.9,-38.39,86.0,62,40,8.05,scattered clouds,0.0,0.0
248,Eyl,SO,2020-04-18 18:54:15,7.98,49.82,83.03,74,3,11.79,clear sky,0.0,0.0
249,Bolotnoye,RU,2020-04-18 18:54:16,55.67,84.4,37.44,75,27,8.55,scattered clouds,0.0,0.0
250,Vao,NC,2020-04-18 18:54:16,-22.67,167.48,75.09,69,26,11.03,scattered clouds,0.0,0.0
251,Gundorovskiy,RU,2020-04-18 18:54:16,46.78,41.9,49.55,73,100,5.79,overcast clouds,0.0,0.0
252,Grand Gaube,MU,2020-04-18 18:54:17,-20.01,57.66,79.0,74,40,16.11,shower rain,0.0,0.0
253,Torbay,CA,2020-04-18 18:50:51,47.67,-52.73,39.99,51,75,12.75,light shower snow,0.0,0.0
254,Manokwari,ID,2020-04-18 18:54:17,-0.87,134.08,81.23,73,74,3.11,light rain,1.75,0.0
255,Puerto Ayora,EC,2020-04-18 18:54:17,-0.74,-90.35,86.0,70,75,9.17,shower rain,0.0,0.0
256,Gwadar,PK,2020-04-18 18:54:18,25.12,62.33,79.39,76,25,11.72,scattered clouds,0.0,0.0
257,Daru,PG,2020-04-18 18:54:18,-9.08,143.21,79.18,87,73,8.1,broken clouds,0.0,0.0
258,Gat,IL,2020-04-18 18:50:05,31.61,34.76,68.0,15,2,9.62,clear sky,0.0,0.0
259,Avera,US,2020-04-18 18:50:56,33.19,-82.53,77.0,36,1,12.75,clear sky,0.0,0.0
260,Caravelas,BR,2020-04-18 18:54:19,-17.71,-39.25,77.49,78,98,21.54,light rain,0.29,0.0
261,Nossa Senhora Da Gloria,BR,2020-04-18 18:54:19,-10.22,-37.42,83.71,62,78,12.33,moderate rain,5.22,0.0
262,Laguna,US,2020-04-18 18:54:19,38.42,-121.42,64.0,59,90,9.17,overcast clouds,0.0,0.0
263,Grindavik,IS,2020-04-18 18:54:20,63.84,-22.43,37.4,93,90,12.75,overcast clouds,0.0,0.0
264,Surovatikha,RU,2020-04-18 18:54:20,55.77,43.9,37.99,76,40,4.47,scattered clouds,0.0,0.0
265,Rotterdam,NL,2020-04-18 18:52:09,51.92,4.48,54.0,87,90,8.05,overcast clouds,0.0,0.0
266,Yar-Sale,RU,2020-04-18 18:51:14,66.83,70.83,34.72,98,100,6.22,overcast clouds,0.0,0.0
267,Nome,US,2020-04-18 18:54:21,64.5,-165.41,33.8,100,90,8.05,mist,0.0,0.0
268,Darab,IR,2020-04-18 18:54:21,28.75,54.54,68.04,28,58,5.37,broken clouds,0.0,0.0
269,Dafeng,CN,2020-04-18 18:54:21,23.45,108.59,72.34,85,93,5.93,overcast clouds,0.0,0.0
270,Cap Malheureux,MU,2020-04-18 18:51:38,-19.98,57.61,79.0,74,40,16.11,shower rain,0.0,0.0
271,Luganville,VU,2020-04-18 18:54:22,-15.53,167.17,73.4,94,40,3.02,scattered clouds,0.0,0.0
272,Tiksi,RU,2020-04-18 18:54:22,71.69,128.87,5.04,87,92,4.7,overcast clouds,0.0,0.0
273,Pervomayskiy,RU,2020-04-18 18:50:59,53.25,40.29,39.74,68,91,8.25,light rain,0.17,0.0
274,Butaritari,KI,2020-04-18 18:54:22,3.07,172.79,82.04,78,98,14.43,light rain,1.99,0.0
275,Khatanga,RU,2020-04-18 18:54:23,71.97,102.5,10.49,93,0,4.81,clear sky,0.0,0.0
276,Beidao,CN,2020-04-18 18:54:23,34.57,105.89,50.13,51,8,0.78,clear sky,0.0,0.0
277,Hasaki,JP,2020-04-18 18:51:49,35.73,140.83,52.0,87,75,3.36,broken clouds,0.0,0.0
278,Esperance,AU,2020-04-18 18:52:38,-33.87,121.9,59.0,93,90,13.87,overcast clouds,0.0,0.0
279,San Andres Del Rabanedo,ES,2020-04-18 18:54:24,42.61,-5.62,59.0,51,96,3.36,light rain,0.84,0.0
280,Venice,US,2020-04-18 18:54:24,27.1,-82.45,78.01,83,1,6.93,light rain,0.0,0.0
281,Ust-Barguzin,RU,2020-04-18 18:54:24,53.45,108.98,27.14,85,96,11.16,overcast clouds,0.0,0.0
282,Makakilo City,US,2020-04-18 18:49:54,21.35,-158.09,77.0,77,40,7.16,scattered clouds,0.0,0.0
283,Shingu,JP,2020-04-18 18:54:25,33.73,135.98,51.78,69,1,12.64,clear sky,0.0,0.0
284,Pisco,PE,2020-04-18 18:54:25,-13.7,-76.22,75.99,64,3,10.29,clear sky,0.0,0.0
285,Raudeberg,NO,2020-04-18 18:54:25,61.99,5.14,48.2,66,0,8.05,clear sky,0.0,0.0
286,Hoima,UG,2020-04-18 18:54:25,1.44,31.34,65.62,68,100,1.45,overcast clouds,0.0,0.0
287,Cururupu,BR,2020-04-18 18:54:25,-1.83,-44.87,83.41,77,83,2.48,moderate rain,3.91,0.0
288,Solca,RO,2020-04-18 18:54:26,47.7,25.85,52.0,10,88,1.5,overcast clouds,0.0,0.0
289,Ukiah,US,2020-04-18 18:54:26,39.15,-123.21,55.99,71,90,8.05,overcast clouds,0.0,0.0
290,Zhezkazgan,KZ,2020-04-18 18:54:26,47.8,67.71,57.69,40,87,7.43,overcast clouds,0.0,0.0
291,Doaba,PK,2020-04-18 18:54:26,33.42,70.74,63.28,51,31,0.98,scattered clouds,0.0,0.0
292,Mocuba,MZ,2020-04-18 18:50:28,-16.84,36.99,71.19,94,1,3.89,light rain,1.11,0.0
293,Saint-Philippe,RE,2020-04-18 18:54:27,-21.36,55.77,77.0,78,20,10.29,few clouds,0.0,0.0
294,Rio Gallegos,AR,2020-04-18 18:49:54,-51.62,-69.22,60.8,59,40,14.99,scattered clouds,0.0,0.0
295,Aklavik,CA,2020-04-18 18:54:27,68.22,-135.01,23.0,79,75,11.41,broken clouds,0.0,0.0
296,Zhanaozen,KZ,2020-04-18 18:54:28,43.3,52.8,62.08,38,59,5.53,broken clouds,0.0,0.0
297,Ixtapa,MX,2020-04-18 18:54:28,20.7,-105.2,78.8,65,75,12.75,broken clouds,0.0,0.0
298,Bestobe,KZ,2020-04-18 18:54:28,52.5,73.1,57.56,41,88,10.6,overcast clouds,0.0,0.0
299,Calama,CL,2020-04-18 18:53:43,-22.47,-68.93,75.2,12,0,21.92,clear sky,0.0,0.0
300,Kedgwick,CA,2020-04-18 18:54:29,47.64,-67.34,39.06,62,54,6.08,light snow,0.0,0.12
301,Port Blair,IN,2020-04-18 18:52:09,11.67,92.75,83.97,74,8,6.67,clear sky,0.0,0.0
302,Umtata,ZA,2020-04-18 18:54:29,-31.59,28.78,60.8,87,0,3.36,clear sky,0.0,0.0
303,Meulaboh,ID,2020-04-18 18:54:29,4.14,96.13,79.48,82,89,3.87,light rain,0.43,0.0
304,Bandarbeyla,SO,2020-04-18 18:50:30,9.49,50.81,81.97,69,82,9.86,broken clouds,0.0,0.0
305,Sumbe,AO,2020-04-18 18:54:30,-11.21,13.84,79.63,85,74,2.1,light rain,0.95,0.0
306,Churachandpur,IN,2020-04-18 18:54:30,24.33,93.67,62.31,64,95,1.16,light rain,0.12,0.0
307,Saint-Claude,FR,2020-04-18 18:54:30,46.5,5.83,62.01,68,67,3.85,light rain,0.52,0.0
308,Namibe,AO,2020-04-18 18:54:07,-15.2,12.15,74.34,70,69,5.64,light rain,0.4,0.0
309,Labuhan,ID,2020-04-18 18:54:31,-6.88,112.21,79.86,82,70,1.1,light rain,0.71,0.0
310,Tabuk,PH,2020-04-18 18:53:13,17.42,121.44,74.82,82,90,3.74,overcast clouds,0.0,0.0
311,Bouillante,GP,2020-04-18 18:54:31,16.13,-61.77,86.0,58,20,12.75,few clouds,0.0,0.0
312,Talavera De La Reina,ES,2020-04-18 18:54:32,39.96,-4.83,64.0,56,90,7.0,light rain,0.25,0.0
313,Sitka,US,2020-04-18 18:54:32,57.05,-135.33,41.0,93,40,4.7,mist,0.0,0.0
314,Mwinilunga,ZM,2020-04-18 18:54:32,-11.74,24.43,65.93,59,19,5.32,light rain,0.18,0.0
315,Namatanai,PG,2020-04-18 18:54:33,-3.67,152.43,81.41,77,100,3.33,overcast clouds,0.0,0.0
316,Portland,US,2020-04-18 18:54:18,45.52,-122.68,52.0,76,90,8.05,light rain,0.0,0.0
317,Nizwa,OM,2020-04-18 18:51:12,22.93,57.53,84.2,15,0,3.56,clear sky,0.0,0.0
318,Maraa,BR,2020-04-18 18:54:33,-1.83,-65.37,81.93,84,79,3.4,moderate rain,3.9,0.0
319,Seryshevo,RU,2020-04-18 18:54:33,51.09,128.38,40.12,56,100,8.93,overcast clouds,0.0,0.0
320,Caucaia,BR,2020-04-18 18:54:34,-3.74,-38.65,86.0,62,40,8.05,scattered clouds,0.0,0.0
321,Catalina,US,2020-04-18 18:54:34,32.51,-110.92,75.0,17,93,5.99,overcast clouds,0.0,0.0
322,Bolobo,CD,2020-04-18 18:54:34,-2.17,16.23,78.28,74,84,5.14,moderate rain,3.73,0.0
323,Sola,VU,2020-04-18 18:49:40,-13.88,167.55,82.44,76,73,10.36,light rain,0.88,0.0
324,Gryazovets,RU,2020-04-18 18:54:35,58.88,40.25,31.89,90,63,4.97,broken clouds,0.0,0.0
325,Ilulissat,GL,2020-04-18 18:54:35,69.22,-51.1,24.8,79,75,3.36,light shower snow,0.0,0.0
326,Isangel,VU,2020-04-18 18:49:52,-19.55,169.27,75.2,94,75,10.58,broken clouds,0.0,0.0
327,Qurayyat,SA,2020-04-18 18:54:36,31.33,37.34,73.4,25,0,2.24,clear sky,0.0,0.0
328,Port Elizabeth,ZA,2020-04-18 18:54:36,-33.92,25.57,68.0,94,3,9.17,clear sky,0.0,0.0
329,Jacqueville,CI,2020-04-18 18:54:36,5.21,-4.41,84.2,83,20,11.41,few clouds,0.0,0.0
330,Mount Gambier,AU,2020-04-18 18:50:08,-37.83,140.77,42.8,93,40,6.93,scattered clouds,0.0,0.0
331,Maragogi,BR,2020-04-18 18:54:37,-9.01,-35.22,84.43,69,39,8.84,light rain,1.79,0.0
332,Narsaq,GL,2020-04-18 18:54:37,60.92,-46.05,33.8,43,40,5.82,scattered clouds,0.0,0.0
333,Anito,PH,2020-04-18 18:54:37,12.45,125.29,79.72,82,38,11.39,scattered clouds,0.0,0.0
334,Plouzane,FR,2020-04-18 18:54:37,48.38,-4.62,57.2,82,3,4.7,light rain,0.14,0.0
335,Ozerne,UA,2020-04-18 18:54:37,50.18,28.73,42.55,56,80,5.99,broken clouds,0.0,0.0
336,Esmeralda,CU,2020-04-18 18:54:38,21.85,-78.12,93.22,36,8,7.83,clear sky,0.0,0.0
337,Ganzhou,CN,2020-04-18 18:54:38,28.82,115.43,61.77,91,100,4.07,moderate rain,10.25,0.0
338,Masuguru,TZ,2020-04-18 18:54:38,-11.37,38.42,72.66,89,87,3.29,light rain,1.92,0.0
339,Zelenoborskiy,RU,2020-04-18 18:54:38,66.84,32.36,31.46,96,29,8.39,scattered clouds,0.0,0.0
340,Pathardi,IN,2020-04-18 18:54:39,19.17,75.18,87.26,24,48,4.41,scattered clouds,0.0,0.0
341,Kirkuk,IQ,2020-04-18 18:53:03,35.47,44.39,70.29,38,2,8.32,clear sky,0.0,0.0
342,Katsuura,JP,2020-04-18 18:54:39,35.13,140.3,57.99,71,4,3.0,clear sky,0.0,0.0
343,Petropavlovsk-Kamchatskiy,RU,2020-04-18 18:54:40,53.05,158.65,30.2,68,0,6.71,clear sky,0.0,0.0
344,Baykit,RU,2020-04-18 18:54:40,61.67,96.37,20.35,92,46,2.13,scattered clouds,0.0,0.0
345,Camopi,GF,2020-04-18 18:54:40,3.17,-52.32,88.52,59,62,2.73,light rain,0.16,0.0
346,Curvelo,BR,2020-04-18 18:54:40,-18.76,-44.43,76.93,65,80,5.84,moderate rain,3.2,0.0
347,Nemuro,JP,2020-04-18 18:54:40,43.32,145.57,40.48,83,97,9.6,overcast clouds,0.0,0.0
348,Majalgaon,IN,2020-04-18 18:54:41,19.15,76.23,90.79,20,70,2.93,broken clouds,0.0,0.0
349,Vodnyy,RU,2020-04-18 18:54:41,63.5,53.41,33.33,90,95,4.16,overcast clouds,0.0,0.0
350,Fairbanks,US,2020-04-18 18:54:41,64.84,-147.72,39.2,100,90,2.98,light rain,0.0,0.0
351,Bud,US,2020-04-18 18:54:41,39.45,-86.18,53.01,45,40,6.93,scattered clouds,0.0,0.0
352,Ballitoville,ZA,2020-04-18 18:54:42,-29.54,31.21,71.6,88,90,9.17,light rain,0.0,0.0
353,Sao Joao Da Barra,BR,2020-04-18 18:49:48,-21.64,-41.05,78.8,65,75,13.87,broken clouds,0.0,0.0
354,Kongolo,CD,2020-04-18 18:54:42,-5.38,27.0,72.79,75,100,0.6,light rain,0.87,0.0
355,Pacific Grove,US,2020-04-18 18:54:42,36.62,-121.92,59.0,62,90,7.99,overcast clouds,0.0,0.0
356,Karaman,TR,2020-04-18 18:54:42,37.08,33.25,56.17,41,94,5.7,overcast clouds,0.0,0.0
357,Paamiut,GL,2020-04-18 18:54:43,61.99,-49.67,29.59,91,100,22.75,light snow,0.0,0.33
358,Banda Aceh,ID,2020-04-18 18:54:43,5.56,95.32,80.04,81,27,4.54,scattered clouds,0.0,0.0
359,Honningsvag,NO,2020-04-18 18:54:43,70.98,25.97,37.27,79,95,10.07,overcast clouds,0.0,0.0
360,Pontes E Lacerda,BR,2020-04-18 18:54:43,-15.23,-59.34,80.46,59,54,5.1,broken clouds,0.0,0.0
361,Husavik,IS,2020-04-18 18:54:44,66.04,-17.34,50.0,57,90,49.44,light intensity drizzle,0.0,0.0
362,Las Palmas,ES,2020-04-18 18:50:22,28.42,-14.01,66.2,72,20,9.17,few clouds,0.0,0.0
363,La Ronge,CA,2020-04-18 18:50:51,55.1,-105.28,28.4,46,75,12.75,broken clouds,0.0,0.0
364,West Fargo,US,2020-04-18 18:54:44,46.88,-96.9,55.99,46,90,14.99,overcast clouds,0.0,0.0
365,Sylacauga,US,2020-04-18 18:54:44,33.17,-86.25,68.0,48,1,8.05,clear sky,0.0,0.0
366,Abu Samrah,SY,2020-04-18 18:54:45,35.3,37.18,69.37,44,67,6.6,broken clouds,0.0,0.0
367,Teahupoo,PF,2020-04-18 18:54:45,-17.83,-149.27,84.2,70,76,5.82,light rain,0.12,0.0
368,Marapanim,BR,2020-04-18 18:54:45,-0.72,-47.7,83.8,72,73,2.39,light rain,1.54,0.0
369,Parintins,BR,2020-04-18 18:54:45,-2.63,-56.74,86.81,65,68,5.21,light rain,0.99,0.0
370,Poso,ID,2020-04-18 18:54:45,-1.4,120.75,78.58,69,67,2.44,light rain,0.45,0.0
371,Dillon,US,2020-04-18 18:54:46,34.42,-79.37,73.4,46,75,14.99,broken clouds,0.0,0.0
372,Kysyl-Syr,RU,2020-04-18 18:54:46,63.9,122.76,0.64,91,1,5.79,clear sky,0.0,0.0
373,Lahat,ID,2020-04-18 18:54:46,-3.8,103.53,74.8,86,97,2.59,light rain,2.17,0.0
374,Noumea,NC,2020-04-18 18:54:47,-22.28,166.46,75.0,83,52,2.24,broken clouds,0.0,0.0
375,Cao Bang,VN,2020-04-18 18:54:47,22.67,106.25,72.75,82,99,3.83,overcast clouds,0.0,0.0
376,Cidreira,BR,2020-04-18 18:51:08,-30.18,-50.21,71.73,65,3,10.78,clear sky,0.0,0.0
377,Salalah,OM,2020-04-18 18:53:43,17.02,54.09,82.4,74,40,5.82,scattered clouds,0.0,0.0
378,Riyadh,SA,2020-04-18 18:54:21,24.69,46.72,82.4,39,40,5.82,scattered clouds,0.0,0.0
379,Kavaratti,IN,2020-04-18 18:50:13,10.57,72.64,84.74,70,1,6.35,clear sky,0.0,0.0
380,Parrita,CR,2020-04-18 18:54:48,9.52,-84.32,86.0,44,20,11.41,few clouds,0.0,0.0
381,Airai,TL,2020-04-18 18:54:48,-8.93,125.41,60.13,56,63,2.48,broken clouds,0.0,0.0
382,Tromso,NO,2020-04-18 18:53:23,69.65,18.96,37.4,93,75,26.4,broken clouds,0.0,0.0
383,Willmar,US,2020-04-18 18:54:48,45.12,-95.04,62.6,36,1,21.92,clear sky,0.0,0.0
384,Matara,LK,2020-04-18 18:54:49,5.95,80.54,80.37,83,54,4.43,light rain,0.8,0.0
385,Yarada,IN,2020-04-18 18:54:49,17.65,83.27,84.2,79,75,3.36,broken clouds,0.0,0.0
386,Dongli,CN,2020-04-18 18:54:49,23.57,116.82,75.2,88,40,2.24,scattered clouds,0.0,0.0
387,Lagoa,PT,2020-04-18 18:54:49,39.05,-27.98,63.09,85,93,25.57,overcast clouds,0.0,0.0
388,Gurgentepe,TR,2020-04-18 18:54:50,40.79,37.6,42.06,68,26,0.4,scattered clouds,0.0,0.0
389,Amalapuram,IN,2020-04-18 18:52:16,16.58,82.02,79.54,87,10,3.13,clear sky,0.0,0.0
390,Codrington,AU,2020-04-18 18:54:50,-38.27,141.97,51.66,84,47,7.92,light rain,0.16,0.0
391,Cody,US,2020-04-18 18:54:51,44.53,-109.06,55.4,19,1,13.87,clear sky,0.0,0.0
392,Takaka,NZ,2020-04-18 18:54:51,-40.85,172.8,51.01,93,46,11.43,light rain,0.18,0.0
393,Hit,IQ,2020-04-18 18:54:51,33.64,42.83,78.75,24,13,2.35,few clouds,0.0,0.0
394,Nuuk,GL,2020-04-18 18:54:52,64.18,-51.72,28.4,68,90,16.11,shower snow,0.0,0.0
395,Namtsy,RU,2020-04-18 18:54:52,62.72,129.67,5.0,60,0,4.47,clear sky,0.0,0.0
396,Faya,SA,2020-04-18 18:50:07,18.39,42.45,64.4,82,20,4.7,few clouds,0.0,0.0
397,Havoysund,NO,2020-04-18 18:54:52,71.0,24.66,35.6,100,95,16.11,fog,0.0,0.0
398,Hokitika,NZ,2020-04-18 18:54:52,-42.72,170.97,54.23,69,82,22.86,moderate rain,3.25,0.0
399,Pemangkat,ID,2020-04-18 18:54:53,1.17,108.97,76.1,89,79,6.85,broken clouds,0.0,0.0
400,Gumdag,TM,2020-04-18 18:54:53,39.21,54.59,72.73,37,0,5.39,clear sky,0.0,0.0
401,Zalantun,CN,2020-04-18 18:54:53,48.0,122.72,56.95,29,100,13.94,overcast clouds,0.0,0.0
402,Nueva Gorgona,PA,2020-04-18 18:54:53,8.55,-79.87,93.0,79,93,11.65,overcast clouds,0.0,0.0
403,Volot,RU,2020-04-18 18:54:53,57.93,30.7,35.31,91,100,9.48,light snow,0.0,0.23
404,Okhotsk,RU,2020-04-18 18:54:54,59.38,143.3,8.15,85,54,12.57,broken clouds,0.0,0.0
405,Igarka,RU,2020-04-18 18:54:54,67.47,86.58,36.19,85,100,20.47,overcast clouds,0.0,0.0
406,Tarancon,ES,2020-04-18 18:54:54,40.01,-3.01,66.99,54,87,2.21,light rain,0.6,0.0
407,Atlantic City,US,2020-04-18 18:54:55,39.36,-74.42,50.0,66,90,20.8,overcast clouds,0.0,0.0
408,Haysville,US,2020-04-18 18:54:55,37.56,-97.35,61.0,45,20,18.34,few clouds,0.0,0.0
409,Kungurtug,RU,2020-04-18 18:54:55,50.6,97.52,29.14,54,0,2.55,clear sky,0.0,0.0
410,Mantua,IT,2020-04-18 18:54:56,45.17,10.78,66.99,56,89,1.01,overcast clouds,0.0,0.0
411,Awbari,LY,2020-04-18 18:54:56,26.59,12.78,87.67,16,21,11.9,few clouds,0.0,0.0
412,Banes,CU,2020-04-18 18:51:20,20.96,-75.72,93.2,34,40,5.82,scattered clouds,0.0,0.0
413,Sokolo,ML,2020-04-18 18:54:56,14.73,-6.12,105.46,6,99,7.54,overcast clouds,0.0,0.0
414,Baruun-Urt,MN,2020-04-18 18:54:56,46.68,113.28,44.1,42,100,6.8,light rain,0.62,0.0
415,Lakes Entrance,AU,2020-04-18 18:53:50,-37.88,147.98,53.01,82,100,1.01,overcast clouds,0.0,0.0
416,Korla,CN,2020-04-18 18:54:57,41.76,86.15,61.47,34,99,4.54,overcast clouds,0.0,0.0
417,Zlobin,HR,2020-04-18 18:54:57,45.29,14.65,57.0,61,80,1.99,broken clouds,0.0,0.0
418,Bien Hoa,VN,2020-04-18 18:54:57,10.95,106.82,82.4,83,40,9.17,scattered clouds,0.0,0.0
419,Kralendijk,BQ,2020-04-18 18:54:58,12.15,-68.27,87.8,55,20,17.22,few clouds,0.0,0.0
420,Hervey Bay,AU,2020-04-18 18:51:02,-25.3,152.85,73.99,100,40,3.38,light intensity shower rain,0.0,0.0
421,Port Lincoln,AU,2020-04-18 18:54:58,-34.73,135.87,58.5,74,51,5.14,broken clouds,0.0,0.0
422,Deputatskiy,RU,2020-04-18 18:54:58,69.3,139.9,-15.95,73,0,1.83,clear sky,0.0,0.0
423,Geraldton,AU,2020-04-18 18:54:58,-28.77,114.6,68.0,82,90,4.7,overcast clouds,0.0,0.0
424,Longonjo,AO,2020-04-18 18:54:59,-12.91,15.25,65.1,55,41,2.91,light rain,1.38,0.0
425,Jalu,LY,2020-04-18 18:50:48,29.03,21.55,73.94,23,0,8.63,clear sky,0.0,0.0
426,General Pico,AR,2020-04-18 18:54:59,-35.66,-63.76,80.94,26,11,18.48,few clouds,0.0,0.0
427,Mahibadhoo,MV,2020-04-18 18:54:59,3.78,72.97,85.77,74,15,8.25,light rain,0.31,0.0
428,Suwalki,PL,2020-04-18 18:55:00,54.11,22.93,43.0,94,97,5.57,overcast clouds,0.0,0.0
429,Ilhabela,BR,2020-04-18 18:55:00,-23.78,-45.36,74.41,72,67,6.58,light rain,0.48,0.0
430,Atar,MR,2020-04-18 18:53:45,20.52,-13.05,86.22,13,0,15.46,clear sky,0.0,0.0
431,Yumen,CN,2020-04-18 18:50:22,40.28,97.2,55.0,22,66,8.34,broken clouds,0.0,0.0
432,Tual,ID,2020-04-18 18:55:01,-5.67,132.75,83.93,76,100,7.76,light rain,1.66,0.0
433,Takoradi,GH,2020-04-18 18:55:01,4.88,-1.76,83.68,78,46,10.74,light rain,0.31,0.0
434,Lucapa,AO,2020-04-18 18:55:01,-8.42,20.74,65.93,75,96,2.51,overcast clouds,0.0,0.0
435,Richards Bay,ZA,2020-04-18 18:55:01,-28.78,32.04,72.5,79,34,12.01,scattered clouds,0.0,0.0
436,Labuan,MY,2020-04-18 18:55:02,5.28,115.24,78.8,94,75,5.48,broken clouds,0.0,0.0
437,Bengkulu,ID,2020-04-18 18:55:02,-3.8,102.27,77.99,83,100,3.4,light rain,2.05,0.0
438,Carayao,PY,2020-04-18 18:55:02,-25.18,-56.4,86.97,27,12,2.42,few clouds,0.0,0.0
439,Hofn,IS,2020-04-18 18:55:02,64.25,-15.21,44.31,86,99,13.35,light rain,0.15,0.0
440,Aksu,CN,2020-04-18 18:55:03,41.12,80.26,58.41,37,92,3.98,overcast clouds,0.0,0.0
441,North Bend,US,2020-04-18 18:55:03,43.41,-124.22,62.01,81,90,9.17,overcast clouds,0.0,0.0
442,Porto Novo,BJ,2020-04-18 18:54:07,6.5,2.6,86.0,79,40,12.75,scattered clouds,0.0,0.0
443,Kondinskoye,RU,2020-04-18 18:55:04,59.65,67.41,41.68,76,59,11.25,light rain,0.23,0.0
444,Abu Kamal,SY,2020-04-18 18:55:04,34.45,40.92,79.92,23,62,5.23,broken clouds,0.0,0.0
445,Clarence Town,AU,2020-04-18 18:55:04,-32.58,151.78,50.0,93,19,3.36,few clouds,0.0,0.0
446,Lincoln,US,2020-04-18 18:55:04,40.8,-96.67,64.4,36,1,25.28,clear sky,0.0,0.0
447,Eldorado,BR,2020-04-18 18:55:05,-23.79,-54.28,77.14,45,68,6.53,broken clouds,0.0,0.0
448,Cockburn Town,TC,2020-04-18 18:55:05,21.46,-71.14,79.07,77,2,14.56,clear sky,0.0,0.0
449,Krasnokholm,RU,2020-04-18 18:55:05,51.6,54.16,43.25,64,89,8.37,overcast clouds,0.0,0.0
450,Merauke,ID,2020-04-18 18:55:05,-8.47,140.33,77.63,87,98,8.88,overcast clouds,0.0,0.0
451,Paramonga,PE,2020-04-18 18:55:06,-10.67,-77.83,76.01,66,40,10.2,scattered clouds,0.0,0.0
452,Byron Bay,AU,2020-04-18 18:55:06,-28.65,153.62,62.6,93,75,6.93,broken clouds,0.0,0.0
453,Ambon,ID,2020-04-18 18:51:09,-3.7,128.18,83.12,72,84,3.02,light rain,0.68,0.0
454,Oranjemund,NA,2020-04-18 18:55:06,-28.55,16.43,59.83,83,1,3.09,clear sky,0.0,0.0
455,Mabaruma,GY,2020-04-18 18:50:17,8.2,-59.78,86.74,57,51,7.72,light rain,0.11,0.0
456,Ettaiyapuram,IN,2020-04-18 18:55:07,9.14,77.99,85.6,63,4,9.75,clear sky,0.0,0.0
457,Belyy Yar,RU,2020-04-18 18:55:07,53.6,91.39,35.6,69,0,6.71,clear sky,0.0,0.0
458,Clyde River,CA,2020-04-18 18:50:25,70.47,-68.59,15.8,85,75,4.7,light snow,0.0,0.0
459,Qasigiannguit,GL,2020-04-18 18:50:25,68.82,-51.19,24.8,79,75,3.36,light shower snow,0.0,0.0
460,San Lazaro,BZ,2020-04-18 18:55:08,18.04,-88.66,89.6,66,20,18.34,few clouds,0.0,0.0
461,Nichinan,JP,2020-04-18 18:55:08,31.6,131.37,57.36,71,87,0.92,overcast clouds,0.0,0.0
462,Hamina,FI,2020-04-18 18:55:08,60.57,27.2,37.4,64,75,9.17,broken clouds,0.0,0.0
463,Cap-Aux-Meules,CA,2020-04-18 18:55:08,47.38,-61.86,37.4,40,5,8.05,clear sky,0.0,0.0
464,Myrhorod,UA,2020-04-18 18:55:09,49.97,33.61,42.4,61,63,4.74,broken clouds,0.0,0.0
465,Itaberaba,BR,2020-04-18 18:55:09,-12.53,-40.31,84.94,58,77,5.32,light rain,0.51,0.0
466,Wuwei,CN,2020-04-18 18:55:09,37.93,102.64,50.0,45,1,4.34,clear sky,0.0,0.0
467,Hudson Bay,CA,2020-04-18 18:55:09,52.85,-102.38,27.19,90,100,10.33,light snow,0.0,0.64
468,Amahai,ID,2020-04-18 18:55:09,-3.33,128.92,80.53,79,77,2.66,light rain,1.56,0.0
469,Maldonado,UY,2020-04-18 18:51:02,-34.67,-54.92,77.0,57,20,9.17,few clouds,0.0,0.0
470,Imeni Poliny Osipenko,RU,2020-04-18 18:55:10,52.42,136.49,26.26,88,76,8.5,broken clouds,0.0,0.0
471,Zhigansk,RU,2020-04-18 18:55:10,66.77,123.37,2.62,93,30,12.91,scattered clouds,0.0,0.0
472,Fortuna,US,2020-04-18 18:55:10,40.6,-124.16,57.0,87,90,3.36,overcast clouds,0.0,0.0
473,Asfi,MA,2020-04-18 18:52:40,32.3,-9.24,65.97,70,20,19.22,few clouds,0.0,0.0
474,Marabba,SD,2020-04-18 18:55:11,12.35,32.18,88.68,11,13,9.71,few clouds,0.0,0.0
475,Tobermory,CA,2020-04-18 18:55:11,45.25,-81.67,46.99,46,8,8.01,clear sky,0.0,0.0
476,Kattivakkam,IN,2020-04-18 18:55:11,13.22,80.32,86.0,79,20,6.93,few clouds,0.0,0.0
477,Biak,ID,2020-04-18 18:55:11,-0.91,122.88,80.13,77,61,2.89,light rain,0.4,0.0
478,Sioux Lookout,CA,2020-04-18 18:50:32,50.1,-91.92,37.4,74,90,14.99,light intensity shower rain,0.0,0.0
479,Ballina,AU,2020-04-18 18:55:12,-28.87,153.57,62.6,93,75,6.93,broken clouds,0.0,0.0
480,Temir,KZ,2020-04-18 18:55:12,49.14,57.13,49.6,68,60,6.04,broken clouds,0.0,0.0
481,Saint-Pierre,RE,2020-04-18 18:55:12,-21.34,55.48,77.0,78,20,10.29,few clouds,0.0,0.0
482,Charters Towers,AU,2020-04-18 18:53:41,-20.1,146.27,71.29,80,18,6.89,few clouds,0.0,0.0
483,Trinidad,BO,2020-04-18 18:55:13,-14.83,-64.9,84.2,39,47,16.11,scattered clouds,0.0,0.0
484,Tessalit,ML,2020-04-18 18:55:13,20.2,1.01,98.2,7,79,7.38,broken clouds,0.0,0.0
485,Westport,US,2020-04-18 18:54:04,41.14,-73.36,43.0,75,90,17.22,overcast clouds,0.0,0.0
486,Lodja,CD,2020-04-18 18:55:13,-3.48,23.43,72.81,83,32,1.99,light rain,1.92,0.0
487,Naze,JP,2020-04-18 18:50:25,28.37,129.48,64.4,82,90,4.7,overcast clouds,0.0,0.0
488,College,US,2020-04-18 18:55:14,64.86,-147.8,39.2,100,90,2.98,light rain,0.0,0.0
489,Cassilandia,BR,2020-04-18 18:55:14,-19.11,-51.73,80.24,62,81,5.46,light rain,0.12,0.0
490,San Ramon,US,2020-04-18 18:50:43,37.78,-121.98,62.01,62,90,9.17,overcast clouds,0.0,0.0
491,Monrovia,LR,2020-04-18 18:55:14,6.3,-10.8,82.4,83,75,12.53,broken clouds,0.0,0.0
492,Pingliang,CN,2020-04-18 18:50:40,35.54,106.69,44.47,47,16,1.34,few clouds,0.0,0.0
493,Los Llanos De Aridane,ES,2020-04-18 18:55:14,28.66,-17.92,68.0,56,20,16.11,few clouds,0.0,0.0
494,Peniche,PT,2020-04-18 18:55:15,39.36,-9.38,62.01,79,26,7.0,scattered clouds,0.0,0.0
495,Khovu-Aksy,RU,2020-04-18 18:55:15,51.13,93.6,32.43,45,0,3.29,clear sky,0.0,0.0
496,Baghdad,IQ,2020-04-18 18:55:15,33.34,44.4,69.8,46,69,9.17,broken clouds,0.0,0.0
497,Marang,MY,2020-04-18 18:55:15,5.21,103.21,80.6,88,20,3.36,few clouds,0.0,0.0
498,Uravakonda,IN,2020-04-18 18:55:16,14.95,77.27,87.51,23,88,8.16,overcast clouds,0.0,0.0
499,Mahon,ES,2020-04-18 18:54:14,39.89,4.27,64.4,88,20,8.05,few clouds,0.0,0.0
500,Burnie,AU,2020-04-18 18:51:19,-41.07,145.92,55.99,91,31,3.0,scattered clouds,0.0,0.0
501,Begunitsy,RU,2020-04-18 18:55:16,59.59,29.32,37.4,90,75,13.42,broken clouds,0.0,0.0
502,Sorland,NO,2020-04-18 18:55:17,67.67,12.69,40.51,91,98,7.85,overcast clouds,0.0,0.0
503,Fare,PF,2020-04-18 18:55:17,-16.7,-151.02,83.53,70,86,6.04,light rain,0.59,0.0
504,Paita,PE,2020-04-18 18:55:17,-5.09,-81.11,87.8,48,54,11.41,light rain,0.2,0.0
505,Yeniseysk,RU,2020-04-18 18:55:17,58.45,92.17,34.45,86,88,7.52,overcast clouds,0.0,0.0
506,Alappuzha,IN,2020-04-18 18:51:55,9.49,76.33,82.63,76,11,1.3,few clouds,0.0,0.0
507,Saint-Augustin,CA,2020-04-18 18:55:18,51.23,-58.65,29.7,88,33,17.52,scattered clouds,0.0,0.0
508,Nelson Bay,AU,2020-04-18 18:55:18,-32.72,152.15,50.0,93,20,3.36,light rain,0.26,0.0
509,Kangaatsiaq,GL,2020-04-18 18:55:18,68.31,-53.46,27.0,88,99,12.3,overcast clouds,0.0,0.0
510,Narasannapeta,IN,2020-04-18 18:55:18,18.42,84.05,81.1,80,27,9.71,scattered clouds,0.0,0.0
511,Tarabha,IN,2020-04-18 18:55:19,20.73,83.65,86.16,35,18,7.4,few clouds,0.0,0.0
512,Nizhnyaya Omka,RU,2020-04-18 18:55:19,55.43,74.94,52.75,62,100,15.3,overcast clouds,0.0,0.0
513,Lamar,US,2020-04-18 18:55:19,33.67,-95.58,64.0,62,20,12.75,few clouds,0.0,0.0
514,Ambilobe,MG,2020-04-18 18:51:16,-13.2,49.05,75.83,77,99,6.6,overcast clouds,0.0,0.0
515,Angul,IN,2020-04-18 18:55:19,20.85,85.1,81.63,62,8,5.86,clear sky,0.0,0.0
516,Culebra,PR,2020-04-18 18:55:20,18.3,-65.3,86.0,66,1,11.41,clear sky,0.0,0.0
517,Itaituba,BR,2020-04-18 18:50:56,-4.28,-55.98,89.6,62,40,2.24,scattered clouds,0.0,0.0
518,Juybar,IR,2020-04-18 18:55:20,36.64,52.91,55.4,93,62,6.93,broken clouds,0.0,0.0
519,Krasnoselkup,RU,2020-04-18 18:55:20,65.7,82.47,37.92,78,100,22.77,overcast clouds,0.0,0.0
520,Mayo,US,2020-04-18 18:55:21,38.89,-76.51,54.0,57,90,17.22,overcast clouds,0.0,0.0
521,Avila,ES,2020-04-18 18:55:21,40.58,-5.0,57.2,67,82,5.82,light rain,1.65,0.0
522,Hoa Binh,VN,2020-04-18 18:55:21,20.81,105.34,77.0,88,75,10.29,broken clouds,0.0,0.0
523,Chyhyryn,UA,2020-04-18 18:55:22,49.08,32.66,45.25,54,79,3.85,broken clouds,0.0,0.0
524,Batsfjord,NO,2020-04-18 18:55:22,70.63,29.72,33.8,86,75,11.41,broken clouds,0.0,0.0
525,Tonekabon,IR,2020-04-18 18:52:55,36.82,50.87,57.2,93,40,2.1,scattered clouds,0.0,0.0
526,Marsa Matruh,EG,2020-04-18 18:55:22,31.35,27.25,60.8,77,20,5.82,few clouds,0.0,0.0
527,Opuwo,NA,2020-04-18 18:55:22,-18.06,13.84,76.37,32,78,4.5,broken clouds,0.0,0.0
528,Daan,CN,2020-04-18 18:55:23,33.06,106.3,47.95,66,40,2.48,scattered clouds,0.0,0.0
529,Manyoni,TZ,2020-04-18 18:55:23,-5.75,34.84,64.98,64,100,5.46,light rain,0.35,0.0
530,Dondo,MZ,2020-04-18 18:55:23,-19.61,34.74,80.6,74,40,14.99,scattered clouds,0.0,0.0
531,Vrede,ZA,2020-04-18 18:55:23,-27.43,29.17,55.69,36,22,3.11,few clouds,0.0,0.0
532,Honggang,CN,2020-04-18 18:55:24,46.47,124.87,58.14,30,72,18.75,broken clouds,0.0,0.0
533,Kencong,ID,2020-04-18 18:55:24,-8.28,113.37,79.72,75,100,4.94,light rain,0.81,0.0
534,Linjiang,CN,2020-04-18 18:55:24,41.81,126.91,44.04,66,51,1.66,broken clouds,0.0,0.0
535,San Cristobal,VE,2020-04-18 18:55:24,7.77,-72.22,84.2,51,40,14.99,smoke,0.0,0.0
536,Makinsk,KZ,2020-04-18 18:55:24,52.63,70.42,49.96,56,100,3.27,overcast clouds,0.0,0.0
537,Vestmannaeyjar,IS,2020-04-18 18:55:25,63.44,-20.27,44.6,93,90,14.99,moderate rain,0.0,0.0
538,Upington,ZA,2020-04-18 18:55:25,-28.45,21.26,78.8,27,4,3.36,clear sky,0.0,0.0
539,El Silencio,VE,2020-04-18 18:55:22,10.5,-66.92,79.0,70,99,1.39,light rain,0.48,0.0
540,Marawi,PH,2020-04-18 18:55:25,8.0,124.29,67.08,71,7,2.75,clear sky,0.0,0.0
541,Alta Floresta,BR,2020-04-18 18:55:25,-9.88,-56.09,96.8,47,75,2.24,broken clouds,0.0,0.0
542,Dharchula,IN,2020-04-18 18:55:26,29.85,80.53,57.06,28,13,7.85,few clouds,0.0,0.0
543,Melita,CA,2020-04-18 18:55:26,49.27,-101.0,50.0,52,94,18.99,overcast clouds,0.0,0.0
544,Nyurba,RU,2020-04-18 18:55:26,63.28,118.33,6.75,93,69,4.54,broken clouds,0.0,0.0
545,Ancud,CL,2020-04-18 18:55:27,-41.87,-73.82,60.8,82,75,14.99,shower rain,0.0,0.0
546,Thinadhoo,MV,2020-04-18 18:55:27,0.53,72.93,84.45,73,100,12.55,overcast clouds,0.0,0.0
547,Bafia,CM,2020-04-18 18:55:27,4.75,11.23,75.54,76,81,2.68,light rain,1.14,0.0
548,Ust-Nera,RU,2020-04-18 18:55:27,64.57,143.2,-9.63,76,99,6.17,overcast clouds,0.0,0.0
549,Montes Altos,BR,2020-04-18 18:55:28,-5.83,-47.07,80.15,71,100,2.1,overcast clouds,0.0,0.0
550,Mildura,AU,2020-04-18 18:55:28,-34.2,142.15,50.0,81,42,4.05,scattered clouds,0.0,0.0
551,Praia Da Vitoria,PT,2020-04-18 18:55:28,38.73,-27.07,64.4,88,75,18.14,broken clouds,0.0,0.0
552,George Town,MY,2020-04-18 18:55:28,5.41,100.34,82.4,88,40,4.7,scattered clouds,0.0,0.0
553,Kakamega,KE,2020-04-18 18:55:29,0.28,34.75,66.2,93,75,6.93,light rain,0.0,0.0
554,Sao Miguel Do Araguaia,BR,2020-04-18 18:55:29,-13.28,-50.16,77.85,79,100,2.64,light rain,1.02,0.0
555,Norman Wells,CA,2020-04-18 18:54:26,65.28,-126.83,37.4,93,90,11.41,light rain,0.0,0.0
556,Kirakira,SB,2020-04-18 18:55:30,-10.45,161.92,77.43,86,100,0.74,light rain,1.41,0.0
557,Schwandorf,DE,2020-04-18 18:55:30,49.33,12.11,62.6,63,1,1.45,clear sky,0.0,0.0
558,Parana,AR,2020-04-18 18:55:30,-31.73,-60.52,82.99,35,0,8.99,clear sky,0.0,0.0
559,Aguada,PR,2020-04-18 18:55:30,18.38,-67.19,82.99,86,49,4.0,heavy intensity rain,0.0,0.0
560,Ahuimanu,US,2020-04-18 18:55:31,21.44,-157.84,80.6,54,1,10.29,clear sky,0.0,0.0
561,Mombetsu,JP,2020-04-18 18:55:31,44.35,143.35,39.96,75,99,4.94,overcast clouds,0.0,0.0
562,Hohhot,CN,2020-04-18 18:55:31,40.81,111.65,42.8,93,40,11.18,light rain,0.0,0.0
563,Dodge City,US,2020-04-18 18:55:18,37.75,-100.02,66.99,29,1,26.4,clear sky,0.0,0.0
564,Turayf,SA,2020-04-18 18:55:31,31.67,38.66,69.8,40,40,4.7,scattered clouds,0.0,0.0
565,Mandalgovi,MN,2020-04-18 18:55:32,45.76,106.27,34.7,45,84,27.51,broken clouds,0.0,0.0
566,Cabo San Lucas,MX,2020-04-18 18:55:32,22.89,-109.91,79.0,64,5,19.46,clear sky,0.0,0.0
567,Wanaka,NZ,2020-04-18 18:55:32,-44.7,169.15,42.53,70,79,6.93,broken clouds,0.0,0.0
568,Lorengau,PG,2020-04-18 18:55:33,-2.02,147.27,82.51,72,64,1.45,broken clouds,0.0,0.0
569,Udachnyy,RU,2020-04-18 18:55:33,66.42,112.4,10.4,43,1,4.47,clear sky,0.0,0.0
570,Ambovombe,MG,2020-04-18 18:55:33,-25.17,46.08,72.14,81,7,12.75,clear sky,0.0,0.0
571,Batagay-Alyta,RU,2020-04-18 18:55:33,67.8,130.41,-7.1,67,0,4.45,clear sky,0.0,0.0
572,Hanting,CN,2020-04-18 18:55:33,36.77,119.21,53.78,69,100,7.09,light rain,0.23,0.0
573,Palauig,PH,2020-04-18 18:55:34,15.44,119.9,80.4,74,75,5.37,light rain,0.12,0.0
574,Waw,SS,2020-04-18 18:55:34,7.7,28.0,87.71,17,35,3.38,scattered clouds,0.0,0.0
575,Preobrazheniye,RU,2020-04-18 18:55:34,42.9,133.91,40.28,68,32,2.66,scattered clouds,0.0,0.0
576,Hirara,JP,2020-04-18 18:55:34,24.8,125.28,73.96,88,98,17.45,overcast clouds,0.0,0.0
577,Snasa,NO,2020-04-18 18:55:35,64.25,12.38,38.52,84,98,3.58,overcast clouds,0.0,0.0
578,Kuytun,RU,2020-04-18 18:55:35,54.34,101.5,29.19,84,100,9.46,light snow,0.0,0.58
579,Hami,CN,2020-04-18 18:55:35,42.8,93.45,65.14,20,95,17.05,overcast clouds,0.0,0.0
580,Maneadero,MX,2020-04-18 18:53:55,31.72,-116.57,64.99,44,90,10.0,overcast clouds,0.0,0.0
581,Henties Bay,NA,2020-04-18 18:51:54,-22.12,14.28,57.0,93,18,5.99,few clouds,0.0,0.0
582,Tazovskiy,RU,2020-04-18 18:55:36,67.47,78.7,36.77,98,100,22.64,light rain,2.99,0.0
583,Praia,CV,2020-04-18 18:55:36,14.92,-23.51,78.8,54,40,20.8,scattered clouds,0.0,0.0
584,Werda,BW,2020-04-18 18:55:36,-25.27,23.28,78.76,22,42,2.77,scattered clouds,0.0,0.0
585,Black Diamond,US,2020-04-18 18:55:37,47.31,-122.0,52.0,6,99,4.56,light rain,0.27,0.0
586,Madang,PG,2020-04-18 18:55:37,-5.22,145.8,78.28,83,97,5.37,moderate rain,5.52,0.0
587,Bay Roberts,CA,2020-04-18 18:55:37,47.6,-53.26,41.0,50,46,7.0,scattered clouds,0.0,0.0
588,Ziarat,PK,2020-04-18 18:55:38,30.38,67.73,49.86,23,40,8.63,scattered clouds,0.0,0.0
589,San Patricio,MX,2020-04-18 18:55:38,19.22,-104.7,82.4,78,20,11.41,few clouds,0.0,0.0
590,Chernivtsi,UA,2020-04-18 18:55:38,48.29,25.94,52.0,10,55,5.75,broken clouds,0.0,0.0
